,City,Cloudiness,Country,Date,Humidity,Latitude,Longitude,Max Temp,Wind Speed
0,Mar del Plata,88,AR,1545361157,36,-46.43,-67.52,73.82,8.9
1,Tarakan,40,ID,1545357600,83,3.3,117.63,82.4,2.24
2,Barrow,92,AR,1545361222,99,-38.31,-60.23,62.84,4.25
3,Caravelas,0,BR,1545361607,100,-17.73,-39.27,79.85,19.42
4,Pacific Grove,1,US,1545360900,83,36.62,-121.92,53.65,5.82
5,Mandalgovi,0,MN,1545361688,61,45.76,106.27,6.64,8.84
6,Ahipara,76,NZ,1545361608,85,-35.17,173.16,66.49,16.4
7,Arraial do Cabo,0,BR,1545361268,88,-22.97,-42.02,78.37,16.06
8,Ribeira Grande,92,PT,1545361175,100,38.52,-28.7,62.57,10.07
9,Charters Towers,32,AU,1545361608,80,-20.07,146.27,87.14,7.38
10,Luderitz,0,NA,1545361284,90,-26.65,15.16,57.13,11.41
11,Vila Franca do Campo,75,PT,1545359400,93,37.72,-25.43,64.4,17.22
12,Omboue,80,GA,1545361154,100,-1.57,9.26,78.91,2.68
13,Ewa Beach,1,US,1545357420,57,21.32,-158.01,76.23,8.05
14,Mackenzie,90,CA,1545358860,92,55.34,-123.09,24.8,11.41
15,Cape Town,0,ZA,1545357600,88,-33.93,18.42,66.2,12.75
16,Baijiantan,0,CN,1545361609,87,45.63,85.18,2.23,8.57
17,Ushuaia,40,AR,1545357600,61,-54.81,-68.31,50.0,6.93
18,Carnarvon,0,ZA,1545361283,44,-30.97,22.13,54.2,3.87
19,Vaini,40,IN,1545357600,87,15.34,74.49,60.8,3.8
20,Khatanga,56,RU,1545361152,67,71.98,102.47,-14.7,5.37
21,Guerrero Negro,8,MX,1545361610,66,27.97,-114.04,59.65,4.54
22,Walvis Bay,92,NA,1545357600,82,-22.95,14.51,62.6,5.82
23,Mecca,0,SA,1545361610,83,21.43,39.83,59.2,3.98
24,Koutsouras,0,GR,1545361611,100,35.03,25.95,56.09,4.03
25,Ziro,24,IN,1545361611,83,27.54,93.82,51.1,2.01
26,Hilo,90,US,1545357180,70,19.71,-155.08,75.02,9.17
27,Beyneu,12,KZ,1545361611,77,45.32,55.19,11.9,11.86
28,Katsuura,20,JP,1545357600,76,33.93,134.5,54.41,3.36
29,Souillac,90,FR,1545359400,87,45.6,-0.6,51.8,17.22
30,Butaritari,48,KI,1545361152,100,3.07,172.79,82.1,8.84
31,Punta Arenas,0,CL,1545357600,66,-53.16,-70.91,50.0,16.11
32,Hermanus,20,ZA,1545361612,94,-34.42,19.24,54.29,4.09
33,Albany,90,US,1545360720,92,42.65,-73.75,37.13,18.34
34,Jamestown,0,AU,1545361095,39,-33.21,138.6,71.89,14.27
35,Kloulklubed,75,PW,1545360600,79,7.04,134.26,84.2,10.29
36,Hamilton,75,BM,1545357300,68,32.3,-64.78,66.2,11.41
37,Mehamn,0,NO,1545361612,100,71.03,27.85,6.14,4.54
38,Avarua,75,CK,1545357600,83,-21.21,-159.78,82.4,8.05
39,Nioro,8,GM,1545361612,40,13.79,-15.05,71.08,10.13
40,Busselton,0,AU,1545361613,71,-33.64,115.35,76.84,11.59
41,Collie,0,AU,1545361613,32,-33.36,116.15,81.25,14.27
42,Pilane,0,BW,1545357600,60,-24.41,26.09,75.2,12.75
43,Baykit,32,RU,1545361613,31,61.68,96.39,-22.17,7.83
44,Port Lincoln,12,AU,1545361613,88,-34.72,135.86,63.61,14.05
45,Vila Velha,75,BR,1545357600,83,-3.71,-38.6,80.6,11.41
46,New Norfolk,75,AU,1545359400,71,-42.78,147.06,57.2,13.87
47,Husavik,12,CA,1545361667,61,50.56,-96.99,0.92,2.98
48,Tuatapere,88,NZ,1545361216,100,-46.13,167.69,53.75,7.27
49,Kalat,0,PK,1545361667,43,29.03,66.58,12.76,2.35
50,Rikitea,8,PF,1545360585,100,-23.12,-134.97,77.6,12.64
51,Lavrentiya,76,RU,1545361244,100,65.58,-170.99,2.05,20.92
52,Cherskiy,12,RU,1545361668,0,68.75,161.3,-40.75,3.47
53,Kommunisticheskiy,68,RU,1545361669,70,61.68,64.48,13.57,9.28
54,Jieshi,20,CN,1545361669,80,22.82,115.83,72.2,10.13
55,Mlowo,88,TZ,1545361669,100,-9.01,33.0,61.94,2.75
56,Novo Aripuana,76,BR,1545361669,93,-5.12,-60.38,76.75,1.52
57,Kodiak,1,US,1545358500,77,39.95,-94.76,34.03,9.17
58,Eugene,75,US,1545360960,88,44.05,-123.1,44.58,6.93
59,Kaitangata,88,NZ,1545361153,94,-46.28,169.85,55.37,7.11
60,Mataura,92,NZ,1545361221,78,-46.19,168.86,56.32,9.24
61,Kieta,36,PG,1545361670,98,-6.22,155.63,83.0,4.59
62,Howard Springs,75,AU,1545359400,66,-12.5,131.05,89.6,12.75
63,Gazojak,8,TM,1545361670,94,41.19,61.4,18.7,12.3
64,Winnemucca,1,US,1545357360,81,40.97,-117.74,33.08,5.48
65,Yanam,0,IN,1545359400,88,16.73,82.22,71.6,5.82
66,Chokurdakh,76,RU,1545361671,38,70.62,147.9,-24.91,9.13
67,Port Alfred,12,ZA,1545361092,90,-33.59,26.89,69.1,16.28
68,Fort Nelson,90,CA,1545357600,77,58.81,-122.69,-0.41,2.24
69,Mlimba,92,TZ,1545361671,100,-8.78,35.81,69.64,1.57
70,Coihaique,0,CL,1545357600,58,-45.58,-72.07,56.17,3.36
71,Georgetown,20,GY,1545357600,94,6.8,-58.16,75.2,4.7
72,Bosaso,0,SO,1545361672,100,11.28,49.18,75.4,11.63
73,Ambilobe,48,MG,1545361673,100,-13.19,49.05,71.84,1.19
74,Marienburg,90,DE,1545360600,93,52.12,9.98,43.74,4.7
75,Comodoro Rivadavia,0,AR,1545357600,40,-45.87,-67.48,71.6,5.82
76,Mananjary,8,MG,1545361673,90,-19.16,46.8,56.27,2.57
77,Dikson,0,RU,1545361673,100,73.51,80.55,-15.96,1.07
78,Nanortalik,0,GL,1545361092,79,60.14,-45.24,35.12,22.1
79,Kapaa,75,US,1545357360,64,22.08,-159.32,75.52,16.11
80,Moyale,0,ET,1545361674,69,3.52,39.05,56.09,4.99
81,Hobart,75,AU,1545359400,71,-42.88,147.33,57.2,13.87
82,Pandan,88,PH,1545361674,100,11.72,122.09,79.0,14.05
83,Torbay,20,CA,1545357600,73,47.66,-52.73,26.6,36.91
84,Songkhla,40,TH,1545359400,79,7.2,100.6,84.2,6.93
85,Luanda,76,AO,1545361675,97,-8.83,13.24,76.39,3.36
86,Ilulissat,92,GL,1545357000,100,69.22,-51.1,21.2,2.98
87,Hithadhoo,0,MV,1545361220,100,-0.6,73.08,81.79,4.03
88,Yulara,12,AU,1545357600,29,-25.24,130.99,87.8,14.99
89,Hami,80,CN,1545361727,74,42.84,93.51,14.47,4.36
90,Najran,0,SA,1545357600,57,17.54,44.22,51.8,2.68
91,Tuktoyaktuk,5,CA,1545357600,82,69.44,-133.03,-16.61,3.36
92,Puerto Ayora,24,EC,1545361573,100,-0.74,-90.35,75.35,8.01
93,Puri,20,ID,1545359400,83,-7.54,112.45,82.4,3.76
94,Calamar,24,CO,1545361728,94,1.96,-72.65,72.34,1.97
95,Isangel,92,VU,1545361729,100,-19.55,169.27,74.0,10.92
96,Saskylakh,76,RU,1545361729,0,71.97,114.09,-29.41,2.53
97,Tasiilaq,0,GL,1545357000,58,65.61,-37.64,28.4,2.24
98,Richards Bay,56,ZA,1545361729,97,-28.77,32.06,68.42,2.8
99,Bluff,0,AU,1545361729,41,-23.58,149.07,97.85,6.11
100,Pitimbu,20,BR,1545357600,88,-7.47,-34.81,75.2,4.7
101,Salalah,0,OM,1545357000,40,17.01,54.1,69.8,12.75
102,Valdivia,0,CL,1545357600,93,-39.81,-73.25,55.4,3.36
103,Atuona,76,PF,1545361180,100,-9.8,-139.03,81.07,14.83
104,Port Hardy,40,CA,1545357600,69,50.7,-127.42,39.2,13.87
105,Upernavik,44,GL,1545361730,100,72.79,-56.15,6.1,10.85
106,Sicamous,90,CA,1545358140,75,50.84,-118.99,42.8,25.28
107,Isabela,76,PH,1545361730,97,10.2,122.99,78.19,4.03
108,Aras,0,YE,1545361730,63,14.28,44.38,28.82,1.97
109,Arman,64,RU,1545361731,64,59.7,150.17,14.65,2.98
110,Castro,0,CL,1545357600,87,-42.48,-73.76,50.0,4.7
111,Iralaya,8,HN,1545361731,100,15.0,-83.23,75.17,3.36
112,Baghdad,90,IQ,1545359400,100,33.3,44.38,51.8,5.82
113,Celestun,0,MX,1545361731,95,20.87,-90.4,74.77,30.6
114,East London,20,ZA,1545361651,100,-33.02,27.91,71.26,19.13
115,Timizart,92,DZ,1545361731,100,36.8,4.25,47.86,1.07
116,Gizo,40,IL,1545360600,87,31.8,34.94,57.2,9.17
117,Tayu,20,JP,1545359400,62,35.06,136.67,53.6,6.93
118,Cidreira,76,BR,1545361211,98,-30.17,-50.22,70.81,2.68
119,Torquay,75,GB,1545358800,100,50.47,-3.52,53.6,12.75
120,Airai,0,TL,1545361733,53,-8.93,125.41,86.69,2.01
121,Maniitsoq,80,GL,1545361733,91,65.42,-52.9,26.8,4.59
122,Notse,12,TG,1545361733,91,6.95,1.17,69.59,2.8
123,Amahai,12,ID,1545361733,100,-3.31,129.0,82.64,13.6
124,Yellowknife,90,CA,1545357600,85,62.45,-114.38,10.4,8.05
125,Santa Rosa,48,AR,1545361735,56,-36.62,-64.29,68.24,13.04
126,Klaksvik,76,FO,1545358800,93,62.23,-6.59,41.0,3.36
127,Biltine,20,TD,1545361735,33,14.53,20.93,59.29,15.66
128,Ratanpur,0,IN,1545359400,82,23.11,87.07,59.0,5.82
129,Bethel,1,US,1545357360,81,60.79,-161.76,-14.05,10.29
130,Sitka,0,US,1545361736,43,37.17,-99.65,39.58,10.8
131,Te Anau,92,NZ,1545361736,95,-45.41,167.72,49.97,3.69
132,Grand Gaube,75,MU,1545357600,83,-20.01,57.66,78.8,11.41
133,Slave Lake,90,CA,1545360780,68,55.28,-114.77,28.4,12.75
134,Pisco,40,PE,1545357600,88,-13.71,-76.2,68.0,18.34
135,Sao Filipe,12,CV,1545361737,94,14.9,-24.5,75.04,15.28
136,Skjervoy,0,NO,1545361737,100,70.03,20.97,23.92,10.63
137,Iquitos,75,PE,1545357600,88,-3.75,-73.25,77.0,3.36
138,Coquimbo,0,CL,1545357600,87,-29.95,-71.34,57.2,6.11
139,Fortuna,0,ES,1545359400,81,38.18,-1.13,48.2,2.24
140,Narsaq,0,GL,1545361788,58,60.91,-46.05,9.34,5.99
141,Ardakan,0,IR,1545361200,93,32.31,54.02,39.2,4.7
142,Bredasdorp,24,ZA,1545357600,93,-34.53,20.04,60.8,4.7
143,Hofn,0,IS,1545361736,100,64.25,-15.21,39.8,12.86
144,Constitucion,5,MX,1545360600,28,23.99,-104.67,44.6,3.36
145,Malinovoye Ozero,24,RU,1545361789,56,51.68,79.77,-10.83,8.28
146,Saint-Philippe,90,CA,1545360240,73,45.36,-73.48,33.31,9.17
147,Vestmannaeyjar,48,IS,1545361549,99,63.44,-20.27,35.75,4.81
148,Warri,0,NG,1545361790,88,5.52,5.75,74.0,4.81
149,Kalabo,44,ZM,1545361790,88,-15.0,22.67,67.52,2.53
150,Saintes,90,FR,1545359400,87,45.74,-0.63,53.04,17.22
151,Shimoda,20,JP,1545357600,50,34.7,138.93,56.19,11.41
152,Derzhavinsk,0,KZ,1545361790,26,51.1,66.31,-17.94,5.32
153,Yizheng,0,CN,1545361791,73,24.67,103.43,56.77,3.47
154,Jumla,0,NP,1545361791,47,29.28,82.18,9.2,1.45
155,San Policarpo,92,PH,1545361791,100,12.18,125.51,79.04,7.72
156,Kununurra,0,AU,1545359400,47,-15.77,128.74,98.6,4.7
157,Boksitogorsk,48,RU,1545361791,80,59.47,33.85,6.77,3.36
158,Dwarka,0,IN,1545359400,81,28.58,77.04,46.4,3.2
159,Saldanha,92,PT,1545361792,99,41.42,-6.55,45.7,8.01
160,Cap Malheureux,75,MU,1545357600,83,-19.98,57.61,78.8,11.41
161,Iqaluit,90,CA,1545357600,77,63.75,-68.52,1.4,13.87
162,Kralendijk,36,BQ,1545357300,83,12.15,-68.27,78.8,14.99
163,Rawson,0,AR,1545361793,56,-43.3,-65.11,62.26,12.75
164,Lompoc,1,US,1545359700,87,34.64,-120.46,55.49,4.7
165,Saint George,20,GR,1545357000,93,39.45,22.34,35.6,1.86
166,Provideniya,0,RU,1545359400,70,64.42,-173.23,-5.81,7.0
167,Waddan,88,LY,1545361794,80,29.16,16.14,36.02,3.09
168,San Patricio,92,PY,1545361276,99,-26.98,-56.83,72.25,3.58
169,Qaanaaq,56,GL,1545361273,92,77.48,-69.36,0.52,2.98
170,Rudnogorsk,32,RU,1545361795,41,57.27,103.75,-5.61,9.73
171,Uige,68,AO,1545361795,99,-7.61,15.06,65.72,2.35
172,Bamiantong,64,CN,1545361796,60,44.93,130.53,25.49,4.59
173,Nouadhibou,0,MR,1545357600,59,20.93,-17.03,64.4,14.99
174,Clarksburg,90,US,1545360780,83,39.28,-80.34,51.37,8.05
175,Esperance,20,TT,1545357600,83,10.24,-61.45,77.0,5.59
176,Kulhudhuffushi,80,MV,1545361797,100,6.62,73.07,82.42,10.25
177,Bull Savanna,92,JM,1545361797,94,17.89,-77.59,73.42,6.11
178,Manono,92,CD,1545361798,100,-7.3,27.4,69.28,3.87
179,Tabas,0,IR,1545357600,48,33.6,56.92,39.2,4.7
180,Pochutla,20,MX,1545360060,74,15.74,-96.47,78.8,1.3
181,Kapuskasing,90,CA,1545358920,92,49.42,-82.43,21.2,12.75
182,Deputatskiy,32,RU,1545361848,0,69.3,139.9,-35.35,2.98
183,Hasaki,20,JP,1545361200,37,35.73,140.83,55.4,4.7
184,Ourem,0,PT,1545357600,93,39.64,-8.59,50.0,3.36
185,Toro,40,CO,1545357600,88,4.61,-76.08,69.8,4.7
186,Port Elizabeth,90,US,1545360960,93,39.31,-74.98,55.24,18.34
187,Nichinan,75,JP,1545361200,100,31.65,131.31,57.33,4.7
188,Evensk,12,RU,1545361851,100,61.92,159.24,11.77,19.01
189,Meiktila,0,MM,1545361851,85,20.88,95.86,71.39,4.21
190,Eskil,80,TR,1545361852,100,38.4,33.41,38.41,3.58
191,Namibe,56,AO,1545361852,100,-15.19,12.15,70.9,3.87
192,Bolotnoye,64,RU,1545361852,68,55.67,84.39,-4.71,13.87
193,Cabo San Lucas,5,MX,1545360960,68,22.89,-109.91,67.1,4.03
194,Longyearbyen,75,NO,1545360600,69,78.22,15.63,35.6,18.34
195,Tomatlan,0,MX,1545361853,90,19.93,-105.25,60.46,2.3
196,Komsomolskiy,88,RU,1545361854,93,67.55,63.78,25.49,25.84
197,Sorrento,0,AU,1545359400,25,-31.82,115.75,86.59,16.11
198,Muros,90,ES,1545359400,100,42.77,-9.06,51.8,17.22
199,Kathu,0,ZA,1545361855,33,-27.7,23.05,58.7,6.04
200,Nikolskoye,75,RU,1545359400,92,59.7,30.79,10.4,8.95
201,Carmaux,90,FR,1545359400,93,44.05,2.16,44.6,6.93
202,Council Bluffs,1,US,1545360960,89,41.26,-95.86,33.69,9.17
203,Medea,40,DZ,1545359400,100,36.27,2.77,51.8,3.36
204,Chuy,92,UY,1545361788,97,-33.69,-53.46,69.5,12.41
205,Tromso,0,NO,1545360600,74,69.65,18.96,18.84,17.22
206,Lieksa,64,FI,1545361858,64,63.32,30.02,3.67,2.46
207,Palafrugell,0,ES,1545359400,100,41.92,3.16,32.0,3.36
208,Victoria,75,BN,1545357600,88,5.28,115.24,80.6,3.36
209,Prince George,90,CA,1545360540,100,53.92,-122.75,32.0,16.11
210,Alofi,75,NU,1545357600,74,-19.06,-169.92,84.2,13.87
211,Abu Samrah,44,SY,1545361860,88,35.3,37.18,40.79,4.81
212,Anadyr,24,RU,1545359400,67,64.73,177.51,-27.41,11.18
213,Adrar,0,DZ,1545357600,49,27.87,-0.29,48.2,6.93
214,Scalea,88,IT,1545361861,100,39.82,15.79,54.74,3.76
215,Avera,90,US,1545360900,89,33.19,-82.53,59.38,4.7
216,Geraldton,90,CA,1545357600,78,49.72,-86.95,15.8,9.17
217,Gainesville,88,US,1545360660,93,29.65,-82.33,62.31,11.41
218,Tiksi,8,RU,1545361862,0,71.64,128.87,-38.23,6.04
219,Porto Novo,0,BR,1545357600,65,-23.68,-45.44,80.6,5.82
220,Manta,64,RO,1545361862,85,45.1,24.1,16.36,2.68
221,Nadym,92,RU,1545361863,88,65.53,72.51,20.05,27.13
222,Tura,36,IN,1545361863,94,25.52,90.21,61.4,3.53
223,Zhangjiakou,0,CN,1545361864,34,40.77,114.88,25.54,6.38
224,Miraflores,64,CO,1545361864,92,5.2,-73.14,47.9,0.78
225,Kuznechikha,56,RU,1545361907,78,63.45,41.73,5.11,3.24
226,Kangaatsiaq,76,GL,1545361908,100,68.31,-53.46,23.56,7.49
227,Sangar,56,RU,1545361909,68,63.92,127.47,-9.84,5.21
228,Trinidad,0,UY,1545361909,97,-33.52,-56.9,64.6,3.09
229,Estepona,0,ES,1545359400,93,36.43,-5.15,49.44,6.93
230,Bundaberg,0,AU,1545357600,59,-24.87,152.35,89.6,14.99
231,Jinji,76,CN,1545361910,91,22.16,112.49,72.16,3.69
232,Kangasala,75,FI,1545360600,85,61.46,24.07,16.48,8.05
233,Kudahuvadhoo,20,MV,1545361911,100,2.67,72.89,80.71,6.71
234,Yeovil,92,GB,1545360600,100,50.94,-2.63,52.3,12.75
235,Oktyabrskoye,20,RU,1545359400,76,56.73,85.44,-9.41,13.42
236,Vanavara,32,RU,1545361912,19,60.35,102.28,-12.4,8.9
237,Nyagan,56,RU,1545361912,70,62.14,65.43,13.75,10.25
238,Thompson,90,CA,1545357600,84,55.74,-97.86,3.2,3.36
239,Miles City,1,US,1545360780,63,46.41,-105.84,35.96,12.75
240,Dongsheng,56,CN,1545361913,94,29.72,112.52,56.54,7.27
241,Ayan,68,TR,1545361913,80,40.67,33.6,22.3,1.97
242,Leningradskiy,0,RU,1545361914,86,69.38,178.42,-13.98,10.13
243,Batagay,36,RU,1545361914,0,67.65,134.64,-48.72,3.02
244,Batemans Bay,92,AU,1545361915,98,-35.71,150.18,64.19,4.47
245,Saint-Augustin,0,FR,1545359400,71,44.83,-0.61,52.59,11.41
246,Goderich,92,CA,1545361916,94,43.74,-81.71,38.95,10.58
247,Maceio,0,BR,1545357600,83,-9.67,-35.74,73.4,4.7
248,Pakokku,68,MM,1545361916,98,21.33,95.09,68.65,4.09
249,Nouakchott,0,MR,1545359400,19,18.08,-15.98,60.8,8.05
250,Los Llanos de Aridane,0,ES,1545359400,68,28.66,-17.92,64.4,11.41
251,Namatanai,48,PG,1545361917,100,-3.66,152.44,80.62,5.1
252,Mayo,20,CA,1545357600,77,63.59,-135.9,6.8,4.7
253,Bambous Virieux,75,MU,1545361200,83,-20.34,57.76,78.8,13.87
254,Tecoanapa,20,MX,1545360060,78,16.99,-99.26,77.0,2.24
255,Waiouru,92,NZ,1545361741,89,-39.48,175.67,57.67,5.26
256,Quincy,90,US,1545359700,100,30.59,-84.58,59.54,6.93
257,Bandarbeyla,48,SO,1545361920,100,9.49,50.81,77.42,20.54
258,Progreso,90,UY,1545357600,88,-34.68,-56.22,69.8,2.24
259,Vila,75,IT,1545360600,100,45.18,8.4,27.19,3.36
260,Peruibe,32,BR,1545361921,98,-24.32,-47.0,80.39,15.17
261,Beihai,75,CN,1545359400,87,38.95,121.19,44.6,8.95
262,Manjacaze,92,MZ,1545361922,95,-24.71,33.88,74.0,12.59
263,Ostrovnoy,24,RU,1545361922,83,68.05,39.51,7.63,12.59
264,Cockburn Town,8,TC,1545361922,98,21.46,-71.14,80.71,23.55
265,Kamaishi,20,JP,1545361200,52,39.28,141.86,44.6,11.41
266,Aranos,0,NA,1545361922,28,-24.14,19.11,62.84,4.25
267,Kavieng,64,PG,1545361923,100,-2.57,150.8,82.51,10.29
268,Marsh Harbour,0,BS,1545361923,96,26.54,-77.06,79.18,29.71
269,Ligatne,92,LV,1545361924,80,57.23,25.04,19.6,8.39
270,Ust-Kuyga,0,RU,1545361925,0,70.0,135.55,-53.76,3.24
271,Ola,68,RU,1545361925,100,59.58,151.3,23.92,22.7
272,Boundiali,8,CI,1545361967,66,9.53,-6.48,64.1,2.75
273,Burnie,92,AU,1545361969,100,-41.05,145.91,56.99,6.26
274,Lethem,12,GY,1545361969,84,3.38,-59.8,75.44,7.61
275,Izumo,0,JP,1545361200,76,35.37,132.75,53.85,3.36
276,Mahina,8,ML,1545361970,43,13.76,-10.85,69.73,9.06
277,Lensk,56,RU,1545361970,69,60.71,114.91,8.75,4.47
278,Buenaventura,92,CO,1545361971,98,3.89,-77.07,68.47,2.3
279,Melfort,75,CA,1545357600,92,52.87,-104.61,5.0,5.82
280,Bozeman,1,US,1545360900,59,45.68,-111.04,37.4,24.16
281,Mucurapo,20,TT,1545357600,83,10.67,-61.53,77.0,15.28
282,Staryy Nadym,92,RU,1545361972,88,65.61,72.68,20.05,27.13
283,Krasnyy Kholm,68,RU,1545361972,77,58.06,37.11,7.45,3.09
284,Clyde River,90,CA,1545359220,83,70.47,-68.59,-9.41,16.11
285,Leshukonskoye,68,RU,1545361973,72,64.9,45.76,6.73,4.59
286,Nha Trang,0,VN,1545357600,62,12.24,109.19,84.2,6.93
287,Saint-Francois,0,FR,1545359400,70,46.42,3.91,48.2,9.17
288,Grindavik,40,IS,1545361200,100,63.84,-22.43,33.64,2.24
289,Ucluelet,68,CA,1545361974,86,48.94,-125.55,37.24,7.61
290,Solnechnyy,0,RU,1545361975,65,50.72,136.64,-4.03,2.75
291,San Cristobal,75,EC,1545361200,100,-0.39,-78.55,55.4,2.24
292,Tateyama,40,JP,1545361200,77,36.66,137.31,51.8,3.36
293,Ladnun,0,IN,1545361976,69,27.64,74.39,40.21,2.86
294,Farmington,1,US,1545360780,35,36.73,-108.21,33.69,4.25
295,Urengoy,88,RU,1545361978,74,65.96,78.37,-6.87,24.34
296,Maltahohe,0,NA,1545361978,59,-24.83,16.98,57.44,5.88
297,Alegre,36,BR,1545361806,92,-20.76,-41.53,73.33,2.98
298,Bathsheba,40,BB,1545357600,69,13.22,-59.52,78.8,13.87
299,Fuyu,48,CN,1545361979,66,47.79,124.46,12.62,6.26
300,Bangassou,0,CF,1545361980,56,4.74,22.82,70.18,4.99
301,Port Hedland,8,AU,1545359400,44,-20.31,118.58,96.8,14.99
302,Kiama,75,AU,1545359400,82,-34.67,150.86,66.2,11.41
303,Karratha,0,AU,1545361982,39,-20.74,116.85,90.65,6.55
304,Tucuman,24,PE,1545361982,76,-17.17,-70.89,53.53,1.68
305,Tabou,12,CI,1545361982,100,4.42,-7.36,81.25,6.11
306,Zhuhai,0,CN,1545357600,61,40.71,112.04,17.6,4.47
307,Laurel,75,US,1545360780,31,45.67,-108.77,42.98,18.34
308,Dunhua,80,CN,1545361982,62,43.37,128.23,26.8,4.7
309,Carutapera,76,BR,1545361983,87,-1.2,-46.02,78.82,7.72
310,Bilma,0,NE,1545361983,75,18.69,12.92,46.96,3.2
311,Cayenne,75,GF,1545359400,88,4.94,-52.33,78.8,9.17
312,Cervo,12,BR,1545361983,95,-22.19,-46.24,64.19,2.68
313,Meulaboh,0,ID,1545361984,100,4.14,96.13,82.82,4.32
314,Mardin,0,TR,1545360600,100,37.32,40.72,41.0,1.12
315,Jatiroto,40,ID,1545359400,74,-6.89,111.01,82.4,3.36
316,Orlik,20,RU,1545362028,54,52.51,99.83,-15.46,4.99
317,Norman Wells,90,CA,1545357600,83,65.28,-126.83,-9.41,3.36
318,Ayr,75,GB,1545360600,93,55.46,-4.63,42.96,2.24
319,Lorengau,68,PG,1545362029,100,-2.02,147.27,81.07,8.23
320,Ekibastuz,0,KZ,1545362030,71,51.72,75.32,-10.06,9.4
321,Chapleau,90,CA,1545357600,100,47.85,-83.4,33.8,4.7
322,Sioux Lookout,90,CA,1545359760,85,50.1,-91.92,9.48,3.36
323,Labuhan,68,ID,1545362031,77,-2.54,115.51,83.72,0.85
324,Codrington,20,AU,1545357600,31,-28.95,153.24,98.46,23.04
325,Saraland,90,US,1545360960,96,30.82,-88.07,50.99,8.05
326,Aklavik,90,CA,1545358680,75,68.22,-135.01,-13.01,1.97
327,Lucapa,92,AO,1545362032,98,-8.42,20.74,65.27,4.99
328,Broome,92,GB,1545360960,93,52.47,1.45,45.37,5.82
329,Aviles,0,ES,1545359400,59,43.55,-5.92,62.6,5.82
330,Champerico,75,MX,1545360300,56,16.38,-93.6,69.8,12.75
331,Dandong,92,CN,1545362034,100,40.12,124.37,35.53,6.89
332,Port Blair,0,IN,1545362034,100,11.67,92.75,82.51,6.49
333,Gawler,40,AU,1545359400,49,-34.6,138.75,68.0,19.46
334,Dicabisagan,92,PH,1545362036,100,17.08,122.42,73.6,7.72
335,Boguchany,24,RU,1545362036,18,58.38,97.46,-10.51,9.62
336,Porosozero,80,RU,1545362036,84,62.72,32.71,7.45,2.57
337,Wanning,75,AT,1545360600,92,48.64,13.53,30.2,3.36
338,Lokosovo,68,RU,1545362037,79,61.13,74.84,14.38,15.88
339,Hornepayne,92,CA,1545362037,78,49.22,-84.78,18.25,8.57
340,Praia da Vitoria,75,PT,1545357600,88,38.73,-27.07,66.2,12.93
341,Rocha,88,UY,1545362038,95,-34.48,-54.34,67.39,7.11
342,El Alto,75,BO,1545361200,93,-16.5,-68.19,44.6,11.41
343,Pinheiro Machado,92,BR,1545362038,95,-31.58,-53.38,65.9,3.53
344,Kuznechnoye,68,RU,1545362039,83,61.12,29.87,13.7,3.02
345,Severo-Kurilsk,0,RU,1545362040,100,50.68,156.12,27.16,17.85
346,Alenquer,0,BR,1545361200,94,-1.95,-54.74,77.0,2.86
347,Spas,90,UA,1545361200,79,50.05,24.48,26.6,6.71
348,Egvekinot,12,RU,1545362041,0,66.32,-179.17,-37.96,2.35
349,Ibra,0,OM,1545362042,99,22.69,58.55,40.52,2.3
350,Ajdabiya,12,LY,1545362042,80,30.75,20.22,39.04,2.86
351,Belmonte,80,PT,1545362042,100,40.36,-7.35,44.98,2.68
352,Barabai,32,ID,1545362042,79,-2.59,115.38,84.8,2.86
353,Maamba,8,ZM,1545362042,89,-17.36,27.22,67.84,2.75
354,La Ronge,90,CA,1545359280,92,55.1,-105.3,14.0,6.93
355,Chesterton,90,US,1545360900,95,41.61,-87.06,41.47,8.05
356,Aitape,88,PG,1545362043,100,-3.15,142.36,80.12,1.79
357,Tsogni,92,GA,1545362045,100,-2.79,10.1,77.42,1.86
358,Awbari,68,LY,1545362045,72,26.59,12.77,41.83,6.26
359,Lebu,0,ET,1545357600,70,8.96,38.73,48.2,2.24
360,Bilibino,24,RU,1545362088,0,68.06,166.44,-40.08,2.35
361,Alice Springs,0,AU,1545359400,24,-23.7,133.88,89.6,17.22
362,Kavaratti,0,IN,1545362089,100,10.57,72.64,80.35,3.02
363,Mirnyy,56,RU,1545362089,82,56.57,36.46,6.1,5.82
364,Tenenkou,0,ML,1545362090,54,14.46,-4.91,63.07,10.36
365,Lagoa,0,PT,1545359400,87,37.14,-8.45,51.8,8.05
366,Coruripe,92,BR,1545362091,100,-10.12,-36.18,77.65,11.3
367,Nelson Bay,75,AU,1545359400,64,-32.72,152.14,75.2,18.34
368,Sao Felix do Xingu,20,BR,1545362092,98,-6.64,-51.99,73.06,2.24
369,Kruisfontein,0,ZA,1545362092,86,-34.0,24.73,64.78,12.3
370,Luganville,88,VU,1545362093,100,-15.51,167.18,80.17,4.7
371,Itarema,92,BR,1545362093,90,-2.92,-39.92,78.14,9.91
372,Kholm,76,RU,1545362093,81,57.15,31.18,10.33,11.14
373,Nome,1,US,1545360900,43,30.04,-94.42,54.19,12.75
374,Sorong,68,ID,1545362093,100,-0.86,131.25,81.74,9.24
375,Ancud,20,CL,1545361200,87,-41.87,-73.83,50.0,6.93
376,Ambanja,75,MG,1545361200,100,-13.68,48.45,75.2,2.24
377,Lata,0,IN,1545362095,65,30.78,78.62,22.3,1.07
378,Gryazi,88,RU,1545362096,89,52.5,39.96,13.3,5.37
379,Coahuayana,0,MX,1545362096,67,18.62,-100.35,56.77,3.02
380,Portland,90,US,1545357180,70,45.52,-122.67,47.44,5.82
381,Praia,0,BR,1545357600,61,-20.25,-43.81,77.0,1.68
382,Port-Cartier,90,CA,1545357600,73,50.03,-66.88,24.8,4.7
383,Chik,90,RU,1545361200,69,54.99,82.44,-9.41,11.18
384,Pevek,0,RU,1545362098,100,69.7,170.27,-29.19,5.77
385,Phan Thiet,56,VN,1545361903,91,10.93,108.1,80.89,5.99
386,Soyo,92,AO,1545362098,95,-6.13,12.37,76.52,1.57
387,Patitirion,48,GR,1545362099,100,39.15,23.87,50.74,2.19
388,Tiarei,20,PF,1545361200,66,-17.53,-149.33,86.0,14.99
389,Camacupa,36,AO,1545362100,96,-12.02,17.48,61.63,4.99
390,Nemuro,20,JP,1545361200,100,43.32,145.57,32.0,10.29
391,Marion,90,US,1545360900,92,35.21,-90.2,41.23,14.99
392,Kasungu,92,MW,1545362102,97,-13.04,33.48,66.85,3.47
393,Arlit,0,NE,1545362102,62,18.74,7.39,50.29,3.24
394,Otane,92,NZ,1545362102,94,-39.89,176.62,61.27,2.01
395,Marrakesh,0,MA,1545359400,76,31.63,-7.99,48.2,4.7
396,Moncao,90,PT,1545359400,100,42.08,-8.48,51.8,12.75
397,Bakchar,68,RU,1545362103,67,57.02,82.07,2.68,9.24
398,Cotonou,20,BJ,1545362103,92,6.37,2.43,72.07,2.8
399,Viedma,88,AR,1545362104,90,-40.81,-62.99,60.32,6.22
400,Clarence Town,75,AU,1545359400,64,-32.59,151.78,75.2,18.34
401,Boende,48,CD,1545362104,94,-0.28,20.88,71.57,2.86
402,Mareeba,20,AU,1545359400,66,-16.99,145.42,89.6,11.41
403,Atlantis,0,ZA,1545361200,82,-33.57,18.5,66.2,8.05
404,Rincon,90,US,1545360960,93,32.3,-81.24,61.02,8.05
405,Saint-Joseph,0,FR,1545359400,87,43.56,6.97,42.8,4.7
406,Henties Bay,92,NA,1545362149,100,-22.12,14.28,58.79,3.02
407,Mukhen,0,RU,1545362149,59,48.19,136.14,20.5,4.99
408,Borzya,48,RU,1545362150,67,50.39,116.53,0.65,4.59
409,Cobija,12,BR,1545362150,86,-11.02,-68.77,76.34,2.46
410,Homnabad,0,IN,1545362150,83,17.77,77.13,68.65,6.04
411,Humaita,0,AR,1545361200,88,-24.93,-65.37,71.6,6.93
412,Zaozerne,88,UA,1545362152,94,51.37,23.94,24.5,10.92
413,San Ramon,20,NI,1545362152,98,12.92,-85.84,66.31,1.74
414,Norwich,100,GB,1545360960,93,52.63,1.29,45.37,5.82
415,Olga,1,US,1545361080,44,34.11,-118.17,60.42,4.7
416,Talnakh,0,RU,1545362153,0,69.49,88.39,-43.59,3.53
417,Hambantota,76,LK,1545362153,100,6.12,81.12,78.59,3.2
418,Mangrol,0,IN,1545362153,77,25.33,76.51,47.41,2.86
419,Tetouan,0,MA,1545359400,81,35.57,-5.37,49.08,5.82
420,Mount Isa,36,AU,1545359400,15,-20.73,139.49,107.6,9.17
421,Acapulco,20,MX,1545360060,78,16.86,-99.88,77.0,2.24
422,Ginir,0,ET,1545362156,72,7.14,40.71,46.37,2.46
423,Cornwall,90,CA,1545360900,100,45.02,-74.73,39.15,6.93
424,Bjornevatn,36,NO,1545360600,79,69.67,29.98,26.6,25.28
425,Vostok,0,RU,1545362157,66,46.45,135.83,20.23,2.8
426,South Lake Tahoe,1,US,1545360900,13,38.93,-119.98,49.12,6.93
427,Mortka,68,RU,1545362157,77,59.33,66.02,11.72,8.05
428,Pangnirtung,56,CA,1545362158,61,66.15,-65.72,0.97,3.31
429,Micheweni,8,TZ,1545362158,100,-4.97,39.83,82.19,10.85
430,Padang,20,ID,1545357600,62,-0.92,100.36,86.0,2.24
431,Owando,0,CG,1545362159,92,-0.49,15.91,72.61,2.86
432,Parabel,80,RU,1545362159,76,58.71,81.5,9.92,10.58
433,Mayor Pablo Lagerenza,8,PY,1545362160,55,-19.93,-60.77,85.97,16.78
434,Kailua,90,US,1545361020,78,21.39,-157.74,74.03,8.05
435,Bubaque,20,GW,1545362162,100,11.28,-15.83,80.3,4.36
436,Gambiran,64,ID,1545362162,90,-7.93,111.77,79.4,2.46
437,Inuvik,90,CA,1545358680,75,68.36,-133.71,-13.01,2.86
438,Mezen,76,RU,1545362162,77,65.85,44.24,9.65,5.7
439,Saint-Denis,90,FR,1545359400,87,48.94,2.36,50.45,18.34
440,Dunedin,92,NZ,1545362164,100,-45.87,170.5,52.04,5.32
441,East Wenatchee Bench,1,US,1545360900,40,47.43,-120.28,43.9,33.33
442,Nkhotakota,92,MW,1545362164,100,-12.93,34.3,68.42,1.79
443,Pangkalanbuun,48,ID,1545362164,95,-2.68,111.62,83.59,3.58
444,Hervey Bay,0,AU,1545361200,59,-25.3,152.85,89.6,17.22
445,Tottori,20,JP,1545361200,50,35.5,134.23,53.28,6.93
446,Khipro,0,PK,1545362165,92,25.83,69.38,46.69,3.02
447,Chernyshevskiy,44,RU,1545362166,63,63.01,112.47,-14.25,7.49
448,Sorland,88,NO,1545362166,100,67.67,12.69,40.03,26.84
449,Kutum,0,SD,1545362166,54,14.2,24.66,44.08,11.41
450,Jijiga,0,ET,1545362208,87,9.35,42.8,40.25,1.57
451,Bulalacao,68,PH,1545362209,100,13.7,123.78,78.1,7.05
452,Karpathos,12,GR,1545360600,66,35.51,27.21,55.4,16.11
453,Opichen,5,MX,1545360240,64,20.55,-89.85,71.6,18.34
454,Salekhard,20,RU,1545362109,82,66.54,66.62,21.49,26.17
455,Altamira,36,BR,1545362211,92,-3.2,-52.21,75.89,4.21
456,Half Moon Bay,90,US,1545361200,93,37.46,-122.43,53.31,3.36
457,Samana,88,EC,1545362212,99,0.12,-76.97,69.19,2.24
458,Merta,0,IN,1545362212,63,26.65,74.03,46.55,2.75
459,Boyolangu,32,ID,1545362212,87,-8.09,111.9,80.44,3.76
460,Maumere,36,ID,1545362213,100,-8.63,122.22,83.59,2.98
461,Atasu,0,KZ,1545362213,54,48.68,71.64,-11.1,8.39
462,Albion,1,US,1545360960,81,41.69,-98.0,33.4,8.05
463,Vardo,90,US,1545361500,89,39.62,-77.74,37.8,9.17
464,Freeport,68,BS,1545362214,100,26.54,-78.7,77.47,36.19
465,Moosomin,8,CA,1545362214,52,50.14,-101.67,7.09,7.23
466,Tazovskiy,80,RU,1545362215,85,67.47,78.7,-13.98,24.05
467,Palauig,12,PH,1545362215,74,15.44,119.9,84.94,5.77
468,Yar-Sale,88,RU,1545362216,90,66.83,70.83,25.54,19.19
469,Plettenberg Bay,0,ZA,1545362216,98,-34.05,23.37,65.68,7.9
470,Mont-Dore,8,NC,1545361200,55,-22.23,166.53,91.4,14.99
471,Forestville,90,CA,1545357600,79,48.74,-69.09,28.4,4.7
472,Kisangani,44,CD,1545362217,84,0.52,25.21,74.09,2.3
473,Karpinsk,32,RU,1545362217,79,59.76,60.01,10.78,6.38
474,Aksay,75,RU,1545361200,100,47.27,39.86,26.6,13.42
475,Huangpi,40,CN,1545361200,93,30.88,114.37,51.8,2.24
476,Yangambi,64,CD,1545362219,74,0.77,24.47,76.03,3.31
477,Nishihara,20,JP,1545361200,89,35.74,139.53,54.46,5.82
478,Darhan,64,MN,1545362219,63,49.49,105.92,7.04,8.57
479,Wendelstein,75,DE,1545360960,86,49.36,11.14,39.31,9.17
480,Piriyapatna,0,IN,1545362221,91,12.34,76.1,68.69,4.99
481,Berlevag,0,NO,1545362221,100,70.86,29.09,5.11,5.88
482,Bali,20,CN,1545362222,100,32.29,119.4,47.54,4.36
483,Cumberland,90,US,1545361140,88,41.97,-71.43,42.8,4.7
484,Beringovskiy,24,RU,1545362223,100,63.05,179.32,-7.86,16.06
485,Hualmay,20,PE,1545362224,95,-11.1,-77.61,64.69,4.54
486,Kahului,40,US,1545360960,73,20.89,-156.47,72.72,13.87
487,Dukat,24,RS,1545362224,68,42.44,22.31,15.32,1.97
488,Natchez,90,US,1545360960,74,31.56,-91.4,49.12,11.41
489,Hobyo,0,SO,1545362224,79,5.35,48.53,78.01,18.79
490,Pueblo Nuevo,0,MX,1545362225,88,23.99,-106.96,63.2,3.47
491,Borborema,8,BR,1545362225,86,-21.62,-49.07,77.24,2.8
492,Vao,80,EE,1545362226,83,59.1,26.19,16.27,9.91
493,Paarl,0,ZA,1545361200,82,-33.74,18.98,66.2,8.05
494,Santa Fe,90,AR,1545361800,94,-31.62,-60.7,68.0,9.17
495,Yerbogachen,20,RU,1545362269,21,61.28,108.01,-13.98,9.84
496,Sinnamary,80,GF,1545362270,95,5.38,-52.96,79.63,14.88
497,Lumberton,1,US,1545360900,43,30.27,-94.2,54.01,12.75
498,Victoria Point,20,AU,1545361200,70,-27.58,153.3,88.39,23.04
499,Port Keats,0,AU,1545362270,74,-14.25,129.55,94.93,7.83
500,Camacha,75,PT,1545359400,88,33.08,-16.33,62.6,6.93
501,Flinders,90,AU,1545361260,93,-34.58,150.85,66.2,6.93
502,Xining,8,CN,1545362272,59,36.62,101.77,18.16,3.53
503,The Pas,90,CA,1545359340,85,53.82,-101.24,14.0,9.17
504,Ugoofaaru,64,MV,1545362273,100,5.67,73.0,80.3,9.4
505,Bumba,48,CD,1545362273,67,2.18,22.47,72.97,3.31
506,Bernardino de Campos,24,BR,1545362273,94,-23.01,-49.48,73.1,2.57
507,Paamiut,0,GL,1545362274,83,61.99,-49.67,32.42,1.79
508,Loa Janan,88,ID,1545362274,84,-0.58,117.09,81.47,2.86
509,Cefalu,48,IT,1545362274,100,38.04,14.02,33.77,1.52
510,Dawei,0,MM,1545362274,65,14.07,98.19,83.14,2.35
511,Poum,56,MK,1545362275,93,41.28,20.71,22.39,1.74
512,Havre-Saint-Pierre,40,CA,1545357600,79,50.23,-63.6,21.2,8.05
513,Point Pedro,92,LK,1545362276,100,9.82,80.23,76.52,13.04
514,Seoul,0,KR,1545361200,39,37.57,126.98,44.11,3.36
515,Tautira,20,PF,1545361200,66,-17.73,-149.15,86.0,14.99
516,Faanui,12,PF,1545362277,100,-16.48,-151.75,82.87,12.53
517,Lesosibirsk,32,RU,1545362277,63,58.22,92.49,-7.9,7.34
518,Rio Grande,64,BR,1545362278,97,-32.03,-52.1,70.81,6.22
519,Waingapu,0,ID,1545362278,58,-9.65,120.26,89.3,7.9
520,Knysna,40,ZA,1545361800,93,-34.04,23.05,62.6,4.7
521,Beberibe,75,BR,1545361200,83,-4.18,-38.13,80.6,10.29
522,Portales,1,US,1545361080,45,34.19,-103.33,33.1,3.36
523,Dreux,90,FR,1545359400,87,48.74,1.37,51.33,20.8
524,Autun,0,FR,1545359400,70,46.95,4.3,45.45,9.17
525,Cutro,90,IT,1545357300,100,39.04,16.98,39.34,11.41
526,Port-Gentil,80,GA,1545362283,100,-0.72,8.78,78.1,4.21
527,Sidi Bin Nur,20,TN,1545359400,87,35.53,10.92,50.0,2.24
528,Pingliang,80,CN,1545362283,63,35.54,106.68,27.07,1.97
529,Mokhsogollokh,64,RU,1545362284,74,61.4,128.95,-11.64,3.09
530,Anarrakhi,36,GR,1545362284,91,40.48,21.57,20.68,2.3
531,Horasan,56,TR,1545362284,92,40.04,42.16,20.5,2.53
532,Xiantao,20,CN,1545362284,91,30.37,113.44,56.54,6.38
533,Pathein,88,MM,1545362284,99,16.78,94.73,76.48,3.98
534,Topchikha,40,RU,1545361200,76,52.82,83.12,-11.21,15.66
535,Ilek,64,RU,1545362285,82,51.53,53.38,8.57,4.09
536,Bairnsdale,92,AU,1545362286,93,-37.83,147.63,62.12,8.61
537,Killybegs,92,IE,1545362286,100,54.63,-8.45,44.12,4.76
538,Pula,90,EC,1545361200,94,-1.95,-79.93,75.2,8.05
539,Bedesa,0,ET,1545362286,80,8.9,40.78,39.13,2.3
540,Qaqortoq,0,GL,1545362287,78,60.72,-46.03,27.97,2.35
541,Filadelfia,0,PY,1545362329,49,-22.35,-60.04,88.63,15.66
542,Oussouye,0,SN,1545361200,88,12.49,-16.54,75.27,4.7
543,Shangrao,88,CN,1545362330,93,28.45,117.97,56.99,3.2
544,Hargeysa,80,SO,1545362331,96,9.56,44.06,53.71,4.36
545,Luang Prabang,90,LA,1545361200,88,19.89,102.14,69.8,2.24
546,Poindimie,100,NC,1545362333,100,-20.93,165.33,77.56,9.51
547,Nicoya,0,CR,1545361200,88,10.15,-85.45,75.2,4.7
548,Teodoro Sampaio,36,BR,1545362333,81,-22.53,-52.17,76.93,2.86
549,Ruteng,0,ID,1545362333,62,-8.61,120.46,86.38,2.98
550,Dickinson,1,US,1545360960,77,46.88,-102.79,23.0,6.93
551,Ende,44,ID,1545362334,100,-8.84,121.65,83.05,15.88
552,Sena Madureira,20,BR,1545362334,89,-9.07,-68.66,76.3,2.08
553,Moindou,44,NC,1545361200,55,-21.69,165.68,91.4,14.99
554,Shubarshi,56,KZ,1545362335,82,48.59,57.19,8.08,9.35
555,La Baule-Escoublac,92,FR,1545359400,93,47.28,-2.4,54.21,25.28
